[{"id":"0","NAME_1":"Region VII","ADM1_EN":"PH070000000","ADM1_PCODE":"70000000","LONGITUDE":"123.615","LATITUDE":"9.921"},{"id":"1","NAME_1":"Region VI","ADM1_EN":"PH060000000","ADM1_PCODE":"60000000","LONGITUDE":"122.651","LATITUDE":"10.844"},{"id":"2","NAME_1":"Bangsamoro Autonomous Region in Muslim Mindanao","ADM1_EN":"PH150000000","ADM1_PCODE":"150000000","LONGITUDE":"123.367","LATITUDE":"6.947"},{"id":"3","NAME_1":"Cordillera Administrative Region","ADM1_EN":"PH140000000","ADM1_PCODE":"140000000","LONGITUDE":"121.039","LATITUDE":"17.355"},{"id":"4","NAME_1":"National Capital Region","ADM1_EN":"PH130000000","ADM1_PCODE":"130000000","LONGITUDE":"121.032","LATITUDE":"14.606"},{"id":"5","NAME_1":"Region I","ADM1_EN":"PH010000000","ADM1_PCODE":"10000000","LONGITUDE":"120.484","LATITUDE":"16.907"},{"id":"6","NAME_1":"Region II","ADM1_EN":"PH020000000","ADM1_PCODE":"20000000","LONGITUDE":"121.732","LATITUDE":"17.207"},{"id":"7","NAME_1":"Region III","ADM1_EN":"PH030000000","ADM1_PCODE":"30000000","LONGITUDE":"120.823","LATITUDE":"15.392"},{"id":"8","NAME_1":"Region IV-A","ADM1_EN":"PH040000000","ADM1_PCODE":"40000000","LONGITUDE":"121.567","LATITUDE":"14.162"},{"id":"9","NAME_1":"Region IV-B","ADM1_EN":"PH170000000","ADM1_PCODE":"170000000","LONGITUDE":"119.906","LATITUDE":"11.359"},{"id":"10","NAME_1":"Region IX","ADM1_EN":"PH090000000","ADM1_PCODE":"90000000","LONGITUDE":"122.848","LATITUDE":"7.826"},{"id":"11","NAME_1":"Region V","ADM1_EN":"PH050000000","ADM1_PCODE":"50000000","LONGITUDE":"123.472","LATITUDE":"13.274"},{"id":"12","NAME_1":"Region VIII","ADM1_EN":"PH080000000","ADM1_PCODE":"80000000","LONGITUDE":"124.953","LATITUDE":"11.537"},{"id":"13","NAME_1":"Region X","ADM1_EN":"PH100000000","ADM1_PCODE":"100000000","LONGITUDE":"124.674","LATITUDE":"8.187"},{"id":"14","NAME_1":"Region XI","ADM1_EN":"PH110000000","ADM1_PCODE":"110000000","LONGITUDE":"125.827","LATITUDE":"7.21"},{"id":"15","NAME_1":"Region XII","ADM1_EN":"PH120000000","ADM1_PCODE":"120000000","LONGITUDE":"124.813","LATITUDE":"6.601"},{"id":"16","NAME_1":"Region XIII","ADM1_EN":"PH160000000","ADM1_PCODE":"160000000","LONGITUDE":"125.791","LATITUDE":"8.813"}]